ident,name,latitude_deg,longitude_deg,municipality
HAM,Hamburg Airport,53.630402,9.98823,Hamburg
BER,Berlin Brandenburg Airport,52.362247,13.500672,Berlin
DUS,Duesseldorf Airport,51.289501,6.76678,Duesseldorf
FRA,Frankfurt Airport,50.030241,8.561096,Frankfurt am Main
MUC,Munich Airport,48.353802,11.7861,Munich
CGN,Koeln Bonn Airport,50.865898,7.14274,Cologne
STR,Stuttgart Airport,48.689899,9.22196,Stuttgart
NUE,Airport Nuremberg,49.498699,11.078056,Nuremberg
